,City,Lat,Lon,Temp,Humidity,Clouds,Max Temp,Wind Speed
0,rikitea,-23.12,-134.97,20.09,65,10,20.09,8.5
1,dikson,73.51,80.55,5.73,85,0,5.73,6.71
2,nikolskoye,59.7,30.79,12.16,76,20,13.89,3.0
3,khatanga,71.97,102.5,11.21,64,9,11.21,7.91
4,faya,18.39,42.45,24.0,40,17,25.0,1.27
5,bluff,-46.6,168.33,9.89,81,99,9.89,7.16
6,peniche,39.36,-9.38,18.34,85,5,19.44,4.92
7,bredasdorp,-34.53,20.04,13.0,76,100,13.0,8.2
8,isangel,-19.55,169.27,18.0,93,75,18.0,8.41
9,oistins,13.07,-59.53,30.0,62,20,30.0,9.8
10,te anau,-45.42,167.72,2.55,87,91,2.55,0.28
11,port alfred,-33.59,26.89,17.22,82,0,17.22,2.24
12,barrow,71.29,-156.79,4.0,80,40,4.0,4.1
13,punta arenas,-53.15,-70.92,0.77,80,98,1.0,8.7
14,marsabit,2.33,37.99,19.26,77,10,19.26,9.55
15,ushuaia,-54.8,-68.3,3.0,64,40,3.0,2.6
16,new norfolk,-42.78,147.06,1.52,92,48,2.22,0.84
17,port pirie,-33.18,138.02,9.0,57,90,9.0,2.6
18,qaanaaq,77.48,-69.36,8.5,53,98,8.5,0.99
19,arraial do cabo,-22.97,-42.03,23.0,78,75,23.0,7.7
20,manga,11.66,-1.07,27.16,71,29,27.16,3.68
21,kundiawa,-6.02,144.97,14.39,69,0,14.39,1.31
22,snyatyn,48.45,25.57,16.67,75,88,16.67,0.89
23,georgetown,5.41,100.34,26.26,94,40,27.0,1.5
24,santa rosa,14.31,121.11,27.78,82,100,28.33,1.79
25,ribeira grande,38.52,-28.7,22.0,64,75,22.0,2.1
26,fare,-16.7,-151.02,24.87,77,46,24.87,11.02
27,sinnamary,5.38,-52.95,27.35,79,77,27.35,2.8
28,touros,-5.2,-35.46,26.0,88,40,26.0,3.6
29,victoria,22.29,114.16,29.03,74,100,30.0,4.92
30,puerto ayora,-0.74,-90.35,21.11,88,80,21.11,2.24
31,east london,-33.02,27.91,20.39,47,7,20.39,1.24
32,saint george,37.1,-113.58,37.93,6,1,38.89,6.06
33,nome,64.5,-165.41,13.11,76,1,14.44,3.6
34,mataura,-46.19,168.86,5.59,92,100,5.59,2.26
35,knyaze-volkonskoye,48.46,135.46,14.0,87,100,14.0,3.0
36,torbay,47.67,-52.73,14.24,71,75,15.56,7.2
37,rosarito,32.33,-117.03,25.08,60,5,26.67,4.1
38,san patricio,19.22,-104.7,32.0,70,75,32.0,7.7
39,doka,13.52,35.77,23.84,79,100,23.84,5.3
40,canala,-21.53,165.95,17.0,82,20,17.0,1.5
41,souillac,-20.52,57.52,22.0,73,75,22.0,6.7
42,pirgos,35.12,25.72,24.44,58,3,24.44,9.39
43,busselton,-33.65,115.33,2.34,85,0,3.33,2.96
44,marsa matruh,31.35,27.25,25.0,73,0,25.0,4.6
45,ende,-8.84,121.66,22.74,78,62,22.74,0.17
46,san vicente,-26.62,-54.13,9.81,83,0,9.81,1.24
47,zambezi,-13.54,23.1,16.28,38,0,16.28,1.78
48,antofagasta,-23.65,-70.4,15.0,72,20,15.0,4.1
49,hermanus,-34.42,19.23,11.67,83,100,11.67,2.24
50,geraldton,-28.77,114.6,10.0,71,0,10.0,7.2
51,upernavik,72.79,-56.15,6.67,74,100,6.67,2.14
52,jamestown,42.1,-79.24,30.78,51,90,31.67,1.5
53,ceres,37.59,-120.96,32.28,24,1,33.33,3.6
54,nouadhibou,20.93,-17.03,25.0,65,1,25.0,8.2
55,ponnani,10.77,75.93,25.0,88,75,25.0,2.6
56,huangnihe,43.56,128.02,14.7,87,0,14.7,0.91
57,aljezur,37.32,-8.8,21.67,85,0,21.67,3.95
58,hobart,-42.88,147.33,2.08,93,40,3.0,3.6
59,chicama,-7.84,-79.15,21.55,58,6,21.55,4.45
60,grand gaube,-20.01,57.66,22.22,65,41,22.22,4.92
61,winnemucca,40.97,-117.74,32.0,11,1,32.0,7.2
62,oussouye,12.48,-16.55,29.0,79,40,29.0,3.1
63,bambous virieux,-20.34,57.76,22.11,73,75,22.22,6.7
64,bonfim,3.08,-59.95,29.5,69,97,29.5,2.66
65,cape town,-33.93,18.42,12.03,93,75,12.78,3.1
66,ancud,-41.87,-73.82,8.16,81,75,8.33,2.1
67,okhotsk,59.38,143.3,11.4,94,100,11.4,2.39
68,albany,42.6,-73.97,34.06,40,0,35.0,2.09
69,kaitangata,-46.28,169.85,8.33,75,94,8.33,3.58
70,avarua,-21.21,-159.78,25.0,69,73,25.0,5.7
71,vaini,-21.2,-175.2,23.0,88,90,23.0,3.6
72,kambove,-10.88,26.6,14.68,54,0,14.68,1.96
73,sisimiut,66.94,-53.67,7.85,92,100,7.85,1.81
74,sindor,62.86,51.89,20.8,93,12,20.8,3.65
75,balabac,7.99,117.06,27.85,79,100,27.85,3.8
76,tongliao,43.61,122.27,19.73,60,4,19.73,2.62
77,lavrentiya,65.58,-171.0,10.23,76,7,10.23,1.91
78,hauterive,46.09,3.45,25.66,39,52,27.0,3.6
79,havelock,34.88,-76.9,29.56,66,75,31.0,6.7
80,belaya gora,68.53,146.42,17.02,60,80,17.02,0.86
81,taree,-31.9,152.47,10.0,100,90,10.0,2.1
82,tanout,14.97,8.89,36.39,20,98,36.39,1.46
83,tomatlan,19.93,-105.25,34.91,43,67,34.91,4.23
84,zapresic,45.86,15.81,21.69,73,41,22.78,0.81
85,tautira,-17.73,-149.15,27.0,65,20,27.0,2.6
86,provideniya,64.38,-173.3,10.0,81,20,10.0,4.0
87,svetlyy,54.67,20.13,14.0,93,90,14.0,2.0
88,atuona,-9.8,-139.03,26.45,78,2,26.45,7.35
89,hilo,19.73,-155.09,24.75,69,90,27.0,4.1
90,nizhniy tsasuchey,50.52,115.13,19.26,62,0,19.26,5.28
91,la macarena,2.18,-73.78,28.19,70,78,28.19,1.21
92,mattru,7.62,-11.83,22.95,98,100,22.95,1.46
93,general roca,-39.03,-67.58,15.0,44,76,15.0,5.1
94,whitianga,-36.83,175.7,8.96,66,0,8.96,1.88
95,kaithal,29.8,76.38,33.82,46,1,33.82,0.86
96,cabo san lucas,22.89,-109.91,30.84,62,40,31.67,5.1
97,fairbanks,64.84,-147.72,12.77,93,90,14.0,2.31
98,beira,-19.84,34.84,18.94,93,0,19.0,1.0
99,superior,46.72,-92.1,26.52,65,1,27.78,4.6
100,stykkisholmur,65.08,-22.73,11.11,70,75,11.11,4.32
101,acapulco,16.86,-99.89,31.0,70,75,31.0,5.7
102,bengkulu,-3.8,102.27,23.97,88,100,23.97,1.97
103,faanui,-16.48,-151.75,24.82,79,52,24.82,11.58
104,butaritari,3.07,172.79,28.83,75,3,28.83,5.95
105,aksay,47.26,39.87,18.19,68,7,18.33,3.0
106,sao joao da barra,-21.64,-41.05,23.5,73,0,24.0,10.3
107,damietta,31.42,31.81,26.0,83,0,26.0,2.6
108,novo oriente,-5.53,-40.77,27.97,50,31,27.97,2.91
109,smithers,54.78,-127.17,18.0,55,75,18.0,1.5
110,kiunga,-6.12,141.29,23.31,98,99,23.31,0.66
111,nantucket,41.28,-70.1,24.0,83,1,24.0,4.6
112,halifax,44.65,-63.57,23.88,79,69,26.11,3.66
113,marion,39.77,-86.16,32.58,55,40,33.89,4.1
114,turayf,31.67,38.66,28.0,30,0,28.0,4.6
115,hithadhoo,-0.6,73.08,29.17,71,74,29.17,2.6
116,kushmurun,52.45,64.63,21.96,62,1,21.96,2.55
117,airai,-8.93,125.41,12.36,91,92,12.36,1.73
118,sioux lookout,50.1,-91.92,24.0,78,75,24.0,1.5
119,matay,28.42,30.78,28.06,48,0,28.06,3.84
120,komsomolskiy,40.43,71.72,26.0,29,100,26.0,2.1
121,contamana,-7.33,-75.02,28.55,67,12,28.55,1.76
122,margate,51.38,1.39,17.77,84,100,18.33,1.34
123,artyom,40.47,50.33,27.0,65,51,27.0,8.2
124,vila velha,-20.33,-40.29,25.0,83,0,25.0,4.6
125,jodar,37.84,-3.35,28.35,26,0,28.89,1.93
126,zhangjiakou,40.81,114.88,15.04,87,27,15.04,2.98
127,hualmay,-11.1,-77.61,18.83,69,6,18.83,5.54
128,biak,-0.91,122.88,24.48,84,71,24.48,2.81
129,santa cruz de la palma,28.68,-17.76,24.44,78,75,27.22,7.7
130,kidal,18.44,1.41,33.25,24,89,33.25,1.17
131,ilulissat,69.22,-51.1,8.0,87,75,8.0,1.5
132,yellowknife,62.46,-114.35,19.9,42,75,21.11,5.1
133,port lincoln,-34.73,135.87,12.1,84,80,12.1,3.7
134,leningradskiy,69.38,178.42,10.63,68,85,10.63,5.5
135,carnarvon,-24.87,113.63,12.0,50,99,12.0,4.1
136,mporokoso,-9.37,30.12,17.01,73,30,17.01,3.25
137,klaksvik,62.23,-6.59,9.0,93,98,9.0,3.1
138,guerrero negro,27.98,-114.06,28.25,35,24,28.25,5.94
139,rayong,12.83,101.43,28.33,95,100,28.33,1.53
140,lokomotivnyy,53.01,60.57,19.3,76,0,19.3,0.64
141,uva,56.99,52.19,24.44,76,0,24.44,2.07
142,usinsk,65.99,57.53,20.67,75,0,20.67,4.93
143,lorengau,-2.02,147.27,28.11,75,99,28.11,3.88
144,esperance,-33.87,121.9,8.0,87,75,8.0,3.1
145,tasiilaq,65.61,-37.64,10.0,53,100,10.0,7.2
146,chokurdakh,70.63,147.92,9.14,75,100,9.14,4.66
147,lagoa,39.05,-27.98,20.63,69,1,20.63,1.4
148,mata,40.68,-7.46,21.67,63,56,21.67,1.82
149,ternate,0.8,127.4,26.51,78,86,26.51,1.81
150,aksha,50.28,113.29,15.54,82,82,15.54,1.13
151,morondava,-20.28,44.28,22.35,67,0,22.35,4.34
152,constitucion,-35.33,-72.42,11.47,71,88,11.47,1.77
153,tateyama,34.98,139.87,23.89,95,78,23.89,0.89
154,kenora,49.82,-94.43,22.89,53,75,23.0,8.7
155,jumla,29.27,82.18,17.64,70,100,17.64,1.03
156,lujan,-34.57,-59.1,12.58,50,0,12.78,0.89
157,kapaa,22.08,-159.32,26.05,78,75,27.22,5.7
158,vostok,46.49,135.88,12.7,100,100,12.7,1.11
159,riyadh,24.69,46.72,34.0,14,15,34.0,2.6
160,shimoda,34.67,138.95,21.67,88,99,21.67,0.45
161,humaita,-7.51,-63.02,32.0,51,66,32.0,0.97
162,saint-philippe,-21.36,55.77,17.98,82,20,22.0,9.8
163,port hardy,50.7,-127.42,15.0,87,75,15.0,1.5
164,saskylakh,71.92,114.08,9.63,70,1,9.63,4.46
165,omsk,55.0,73.4,23.0,64,40,23.0,3.0
166,vitim,59.45,112.56,17.09,68,97,17.09,0.96
167,george,-33.96,22.46,12.0,87,100,12.0,1.0
168,katsuura,35.13,140.3,23.6,95,96,23.89,0.89
169,ahipara,-35.17,173.17,11.4,77,73,11.4,1.14
170,narsaq,60.92,-46.05,11.0,81,100,11.0,1.0
171,whitehorse,60.72,-135.05,16.1,55,75,17.22,5.7
172,hasaki,35.73,140.83,22.86,100,75,23.0,5.55
173,bar harbor,44.39,-68.2,20.84,73,1,24.0,3.6
174,grenfell,-33.9,148.17,6.49,67,90,6.49,2.25
175,mar del plata,-38.0,-57.56,10.69,58,100,11.0,4.6
176,ariquemes,-9.91,-63.04,30.78,50,3,30.78,2.02
177,ponta do sol,32.67,-17.1,20.8,72,0,22.78,2.34
178,kaffrine,14.11,-15.55,28.63,64,98,28.63,6.25
179,urusha,54.05,122.9,16.45,97,98,16.45,2.08
180,san andres,12.58,-81.7,30.0,74,75,30.0,3.1
181,thompson,55.74,-97.86,19.0,77,75,19.0,5.7
182,zhaozhou,45.68,125.32,18.91,80,0,18.91,2.78
183,longyearbyen,78.22,15.64,8.0,81,75,8.0,4.1
184,vagay,57.94,69.02,20.05,84,7,20.05,3.03
185,salair,54.23,85.8,15.58,96,100,15.58,2.91
186,chivilcoy,-34.9,-60.02,11.11,60,6,11.11,1.79
187,wattegama,6.8,81.48,24.47,86,97,24.47,2.2
188,ossora,59.24,163.07,11.84,90,100,11.84,2.73
189,shintomi,32.08,131.47,23.26,87,100,23.26,1.51
190,hato mayor,18.76,-69.26,32.35,52,40,33.0,7.2
191,kurilsk,45.23,147.88,13.67,86,100,13.67,0.88
192,toora-khem,52.47,96.11,11.61,80,90,11.61,1.34
193,kruisfontein,-34.0,24.73,12.4,89,72,12.4,2.86
194,kahului,20.89,-156.47,26.9,55,40,30.0,9.3
195,bhaderwah,32.98,75.72,18.43,66,0,18.43,0.3
196,bonavista,48.65,-53.11,12.78,81,100,12.78,4.47
197,epernay,49.05,3.95,21.36,53,3,24.0,1.5
198,hay river,60.82,-115.8,18.0,77,75,18.0,3.6
199,salalah,17.02,54.09,28.0,88,75,28.0,1.5
200,egvekinot,66.32,-179.17,12.31,69,80,12.31,2.65
201,sladkovo,55.53,70.34,22.1,83,34,22.1,4.56
202,berlevag,70.86,29.09,7.63,93,75,8.0,8.2
203,severo-kurilsk,50.68,156.12,9.63,93,100,9.63,5.11
204,changji,44.02,87.32,23.0,49,100,23.0,1.0
205,sault sainte marie,46.52,-84.33,31.68,49,1,32.0,4.36
206,saint anthony,45.02,-93.22,25.62,69,1,26.11,3.1
207,zverinogolovskoye,54.46,64.85,20.64,78,0,20.64,2.61
208,kieta,-6.22,155.63,26.86,79,100,26.86,3.36
209,watertown,42.37,-71.18,31.26,52,1,33.33,3.89
210,saint-joseph,-21.37,55.62,16.59,82,20,20.0,9.8
211,gwanda,-20.93,29.0,13.0,75,0,13.0,2.65
212,san blas,21.52,-105.27,29.0,62,75,29.0,2.74
213,krasnozerskoye,53.98,79.24,18.55,94,94,18.55,3.7
214,amantea,39.13,16.07,22.01,94,0,23.0,2.1
215,pisco,-13.7,-76.22,19.04,64,40,20.0,4.1
216,saldanha,-33.01,17.94,12.0,93,100,12.0,2.6
217,luganville,-15.53,167.17,25.0,88,75,25.0,3.1
218,bam,29.11,58.36,29.94,12,2,29.94,5.48
219,asau,46.43,26.4,15.56,88,2,15.56,1.53
220,sitka,57.05,-135.33,13.0,93,90,13.0,3.6
221,boyolangu,-8.12,111.89,23.0,89,100,23.0,2.5
222,sechura,-5.56,-80.82,22.49,57,0,22.49,9.12
223,santa maria,-29.68,-53.81,8.9,81,3,8.9,1.13
224,port blair,11.67,92.75,27.3,81,100,27.3,4.4
225,gamba,-2.65,10.0,23.05,86,97,23.05,3.3
226,alugan,12.22,125.48,27.28,82,100,27.28,2.59
227,college,64.86,-147.8,12.85,82,90,14.0,1.5
228,umm lajj,25.02,37.27,28.2,64,0,28.2,1.99
229,mantua,45.17,10.78,23.07,68,0,24.44,2.56
230,kalianget,-7.05,113.93,25.68,78,83,25.68,3.32
231,kjollefjord,70.95,27.35,8.0,87,90,8.0,7.2
232,belebey,54.12,54.12,21.03,72,0,21.03,2.36
233,cherskiy,68.75,161.3,12.47,86,99,12.47,2.38
234,chapais,49.78,-74.85,29.0,45,75,29.0,1.5
235,tiksi,71.69,128.87,1.9,91,86,1.9,4.44
236,tuktoyaktuk,69.45,-133.04,3.0,86,90,3.0,5.7
237,siderno,38.28,16.3,24.31,88,20,25.0,1.0
238,porto novo,6.5,2.6,25.0,94,40,25.0,3.1
239,bilma,18.69,12.92,33.04,17,28,33.04,1.35
240,la ronge,55.1,-105.28,20.0,60,90,20.0,4.1
241,vardo,70.37,31.11,8.0,93,75,8.0,11.3
242,banda aceh,5.56,95.32,26.39,79,100,26.39,2.09
243,quatre cocos,-20.21,57.76,22.12,73,75,22.22,6.7
244,sao paulo de olivenca,-3.38,-68.87,30.85,58,81,30.85,1.63
245,lebu,-37.62,-73.65,12.26,93,100,12.26,10.66
246,nemuro,43.32,145.57,14.78,97,76,14.78,3.17
247,husavik,66.04,-17.34,9.0,76,75,9.0,13.4
248,matagami,49.75,-77.63,30.0,42,1,30.0,3.6
249,yala,6.33,101.25,22.6,86,100,22.6,1.44
250,erzin,36.96,36.2,26.11,83,35,26.11,0.26
251,santa cruz,-17.8,-63.17,18.0,59,90,18.0,4.6
252,mitu,1.2,-70.17,27.96,78,100,27.96,1.27
253,kodiak,57.79,-152.41,18.0,52,75,18.0,6.7
254,puerto baquerizo moreno,-0.9,-89.6,20.15,89,92,20.15,5.03
255,dzhebariki-khaya,62.22,135.8,17.81,60,27,17.81,1.31
256,asyut,27.18,31.18,31.0,31,0,31.0,4.6
257,pavino,59.11,46.14,16.69,96,99,16.69,1.95
258,pevek,69.7,170.31,6.39,99,100,6.39,0.97
259,bom jesus da lapa,-13.26,-43.42,26.08,43,67,26.08,1.74
260,sandpoint,48.28,-116.55,23.3,43,40,24.44,4.1
261,russell,32.35,-85.2,31.87,59,20,32.0,1.5
262,port elizabeth,-33.92,25.57,16.0,77,28,16.0,6.7
263,hokitika,-42.72,170.97,5.57,68,0,5.57,1.9
264,marsaxlokk,35.84,14.54,23.2,83,0,23.89,2.1
265,lensk,60.73,114.93,16.82,76,51,16.82,1.26
266,dingle,11.0,122.67,24.75,88,100,24.75,1.13
267,zhezkazgan,47.8,67.71,22.0,40,7,22.0,6.0
268,nakanojo,36.58,138.85,20.88,95,100,22.22,0.45
269,vao,-22.67,167.48,19.64,70,0,19.64,9.32
270,isiro,2.77,27.62,19.97,96,92,19.97,0.92
271,bethel,41.37,-73.41,30.45,58,1,31.67,3.1
272,mungaa,-4.97,34.88,15.28,87,19,15.28,4.56
273,tulum,20.22,-87.47,32.39,70,40,32.78,4.6
274,capreol,46.71,-80.92,30.44,48,75,31.11,5.1
275,boende,-0.22,20.87,23.93,84,100,23.93,1.11
276,chuy,-33.7,-53.46,9.0,73,0,9.0,4.59
277,yumen,40.28,97.2,18.65,29,0,18.65,2.02
278,ahuimanu,21.44,-157.84,28.11,65,75,29.0,5.7
279,yar-sale,66.83,70.83,11.58,75,0,11.58,5.13
280,tabou,4.42,-7.35,24.73,84,100,24.73,4.88
281,hirara,24.8,125.28,29.24,82,98,29.24,9.59
282,ilo,-17.64,-71.34,16.68,72,0,16.68,1.76
283,bafoulabe,13.81,-10.83,33.53,45,63,33.53,4.44
284,portland,45.52,-122.68,21.34,60,75,22.78,1.5
285,karasjok,69.47,25.51,10.0,76,20,10.0,3.6
286,north myrtle beach,33.82,-78.68,31.0,62,40,32.0,3.1
287,hofn,64.25,-15.21,12.24,66,80,12.24,3.57
288,cabo rojo,18.09,-67.15,30.74,65,21,31.67,2.24
289,contai,21.78,87.75,29.05,80,99,29.05,6.79
290,keti bandar,24.14,67.45,29.72,84,69,29.72,7.89
291,kupang,-10.17,123.58,23.08,83,99,23.08,5.08
292,silvan,38.14,41.01,26.0,50,26,26.0,0.5
293,dunedin,-45.87,170.5,7.72,79,71,8.33,1.34
294,choix,26.71,-108.32,34.68,41,61,34.68,3.38
295,porangatu,-13.44,-49.15,26.97,29,0,26.97,1.93
296,talnakh,69.49,88.4,14.0,87,11,14.0,11.0
297,barcelona,41.39,2.16,26.05,61,20,27.0,3.1
298,quepos,9.42,-84.17,21.07,94,75,22.0,4.6
299,howard springs,-12.5,131.05,19.78,73,13,22.0,2.6
300,kavaratti,10.57,72.64,28.46,74,100,28.46,4.6
301,tripoli,32.88,13.19,24.53,77,0,24.53,5.45
302,san cristobal,7.77,-72.22,34.0,36,40,34.0,8.2
303,sangolqui,-0.33,-78.45,13.89,71,85,13.89,1.49
304,alofi,-19.06,-169.92,24.0,88,75,24.0,2.1
305,san jose,37.34,-121.89,29.2,36,1,31.11,4.1
306,bluefields,12.01,-83.76,25.0,94,75,25.0,2.1
307,northam,51.03,-4.22,13.53,94,99,14.44,1.34
308,auki,-8.77,160.7,26.5,82,17,26.5,2.47
309,yerbogachen,61.28,108.01,11.58,87,52,11.58,0.83
310,muli,2.92,73.57,28.72,73,100,28.72,4.02
311,baykit,61.67,96.37,8.74,80,100,8.74,1.05
312,paamiut,61.99,-49.67,7.13,90,100,7.13,12.05
313,gornopravdinsk,60.05,69.9,15.39,94,10,15.39,2.7
314,marawi,8.0,124.29,23.33,90,21,23.33,3.13
315,fortuna,40.6,-124.16,17.63,77,20,18.33,6.2
316,tilichiki,60.47,166.1,9.87,97,100,9.87,2.37
317,shimanovsk,52.0,127.7,18.11,81,100,18.11,3.34
318,nassjo,57.65,14.7,12.0,81,20,12.0,1.67
319,manokwari,-0.87,134.08,26.56,73,68,26.56,2.3
320,bharatpur,27.22,77.48,28.0,88,40,28.0,1.5
321,adrar,20.5,-10.07,35.79,9,0,35.79,4.78
322,arica,-18.48,-70.3,17.0,72,40,17.0,5.1
323,constantine,36.37,6.61,25.0,41,0,25.0,2.1
324,the valley,18.22,-63.06,29.96,62,20,31.0,6.7
325,normandin,48.83,-72.53,29.0,54,75,29.0,2.6
326,nalut,30.33,10.85,27.82,22,0,27.82,7.49
327,namibe,-15.2,12.15,17.22,81,0,17.22,4.38
328,yantal,56.85,105.25,14.31,91,99,14.31,1.86
329,sao filipe,14.9,-24.5,24.11,85,50,24.11,4.87
330,rincon,32.3,-81.24,32.65,55,75,33.33,3.1
331,bujanovac,42.46,21.77,18.33,60,0,18.33,1.37
332,monroe,43.15,-77.68,33.58,28,20,35.0,4.1
333,kirkenes,69.73,30.05,10.0,87,75,10.0,2.1
334,onufriyivka,48.91,33.45,16.39,72,9,16.39,1.69
335,ambulu,-8.35,113.61,22.02,88,64,22.02,1.34
336,marsala,37.8,12.44,26.0,83,20,26.0,3.6
337,padang,-0.95,100.35,24.79,79,97,24.79,1.58
338,karatuzskoye,53.61,92.87,14.7,94,100,14.7,1.64
339,shubarshi,48.59,57.19,24.85,40,0,24.85,4.07
340,kabardinka,44.65,37.94,15.78,77,0,16.0,1.0
341,amahai,-3.33,128.92,24.55,88,95,24.55,1.7
342,tuatapere,-46.13,167.68,7.2,84,96,7.2,2.99
343,myrtle beach,33.69,-78.89,29.76,66,75,31.0,4.6
344,trairi,-3.28,-39.27,26.54,74,12,26.54,4.58
345,itarema,-2.92,-39.92,26.8,72,3,26.8,6.42
346,gunjur,13.2,-16.73,28.0,78,75,28.0,2.1
347,sistranda,63.73,8.83,10.48,87,40,11.0,1.5
348,garissa,-0.45,39.64,24.16,77,5,24.16,6.84
349,nelson bay,-32.72,152.15,10.93,100,40,11.67,2.61
350,siteki,-26.45,31.95,17.0,55,0,17.0,4.6
351,aketi,2.74,23.78,21.74,95,78,21.74,0.65
352,qarqin,37.42,66.04,29.2,16,0,29.2,6.3
353,luangwa,-15.62,30.42,17.99,83,0,17.99,1.37
354,los llanos de aridane,28.66,-17.92,25.19,78,75,27.22,7.7
355,florenville,49.7,5.31,18.15,80,30,20.0,1.59
356,salinas,36.68,-121.66,19.5,56,1,21.0,6.2
357,merrill,45.18,-89.68,25.16,83,1,25.56,2.6
358,zurrieq,35.83,14.47,23.19,83,0,23.89,2.1
359,ibra,22.69,58.53,30.98,42,100,30.98,2.59
360,clyde river,70.47,-68.59,6.0,93,75,6.0,3.1
361,saint-donat-de-montcalm,46.32,-74.22,31.11,5,89,31.11,0.45
362,tomigusuku,26.18,127.67,27.94,88,75,28.0,6.2
363,ewa beach,21.32,-158.01,28.57,58,75,29.0,4.1
364,kaeo,-35.1,173.78,6.39,3,11,6.67,0.89
365,merauke,-8.47,140.33,25.18,87,91,25.18,7.6
366,zaykovo,57.56,62.76,21.3,79,0,21.3,1.66
367,kulhudhuffushi,6.62,73.07,28.22,79,100,28.22,5.6
368,bud,39.45,-86.18,32.14,52,40,32.78,3.6
369,tura,25.52,90.22,23.98,98,100,23.98,1.51
370,mount gambier,-37.83,140.77,6.0,87,90,6.0,3.1
371,sao jose da coroa grande,-8.9,-35.15,24.82,84,46,24.82,3.79
372,lewiston,44.1,-70.21,27.3,74,1,28.0,4.6
373,juneau,58.3,-134.42,13.0,87,90,13.0,7.2
374,hamilton,39.18,-84.53,31.69,66,20,32.78,5.7
375,luderitz,-26.65,15.16,14.0,76,0,14.0,2.6
376,harper,4.38,-7.72,24.74,83,100,24.74,5.02
377,logrono,42.47,-2.45,22.0,60,97,22.0,3.6
378,eureka,40.8,-124.16,18.39,9,15,19.44,0.89
379,dudinka,69.41,86.18,14.0,87,0,14.0,11.0
380,nanortalik,60.14,-45.24,7.2,93,100,7.2,4.88
381,alta floresta,-9.88,-56.09,34.0,26,20,34.0,3.6
382,vila,42.03,-8.16,21.93,49,0,23.33,5.1
383,klyuchi,52.27,79.17,20.82,79,8,20.82,3.54
384,jacmel,18.23,-72.53,35.0,44,30,35.0,8.7
385,sorland,67.67,12.69,12.0,76,40,12.0,16.5
386,lahij,13.17,44.58,33.24,39,98,33.24,0.8
387,grindavik,63.84,-22.43,11.0,76,75,11.0,6.2
388,cidreira,-30.18,-50.21,11.45,67,0,11.45,6.52
389,rio grande,-32.03,-52.1,12.49,50,40,14.0,5.1
390,oranjemund,-28.55,16.43,13.08,75,0,13.08,7.81
391,vanavara,60.34,102.28,9.15,81,5,9.15,1.48
392,pryozerne,45.27,36.33,21.82,58,0,21.82,3.83
393,freeport,40.66,-73.58,29.33,58,1,30.56,5.1
394,wajir,1.75,40.06,26.33,64,39,26.33,8.87
395,paracuru,-3.41,-39.03,26.67,74,20,26.67,5.81
396,escanaba,45.75,-87.06,27.16,69,1,29.44,5.1
397,iracoubo,5.48,-53.2,27.15,79,56,27.15,2.8
398,sinegorye,62.08,150.48,13.7,70,100,13.7,2.74
399,cochrane,51.18,-114.47,20.52,56,20,21.67,5.7
400,jefferson city,38.58,-92.17,32.82,49,40,33.33,5.7
401,moron,-34.65,-58.62,13.34,43,0,13.89,0.89
402,baisha,26.52,110.93,24.96,86,100,24.96,0.86
403,meulaboh,4.14,96.13,24.42,83,98,24.42,1.98
404,yongan,39.7,113.69,15.75,81,73,15.75,2.17
405,olafsvik,64.89,-23.71,11.22,73,66,11.22,4.37
406,teknaf,20.86,92.31,27.04,87,98,27.04,3.87
407,tyukhtet,56.54,89.3,14.44,74,100,14.44,2.48
408,moerai,-22.43,-151.33,21.62,70,21,21.62,9.69
409,abu zabad,12.35,29.25,26.56,65,75,26.56,2.63
410,laguna,38.42,-121.42,34.1,27,1,35.56,1.5
411,fereydun kenar,36.69,52.52,26.0,74,0,26.0,3.1
412,north platte,41.12,-100.77,30.83,40,1,31.11,6.2
413,daur,26.46,68.32,33.0,63,0,33.0,3.1
414,estreito,-5.78,-43.25,26.47,52,32,26.47,0.82
415,parabel,58.7,81.48,14.08,92,100,14.08,2.92
416,richards bay,-28.78,32.04,22.01,55,0,22.01,7.87
417,flin flon,54.77,-101.86,19.0,72,75,19.0,4.6
418,vila franca do campo,37.72,-25.43,21.0,64,40,21.0,4.6
419,berdigestyakh,62.1,126.7,15.13,88,100,15.13,4.15
420,lompoc,34.64,-120.46,17.11,68,11,18.0,7.2
421,venice,27.1,-82.45,32.14,62,1,32.22,6.7
422,caucaia,-3.74,-38.65,26.83,74,75,27.0,4.6
423,snasa,64.25,12.38,11.0,87,75,11.0,2.1
424,yulara,-25.24,130.99,5.0,41,0,5.0,0.5
425,svetlogorsk,52.63,29.73,11.84,77,47,11.84,1.05
426,itoman,26.12,127.67,27.94,88,75,28.0,6.2
427,mormugao,15.4,73.8,25.98,87,100,25.98,3.85
428,castro,-24.79,-50.01,9.5,70,100,9.5,0.66
429,caravelas,-17.71,-39.25,22.28,81,0,22.28,2.42
430,petropavlovsk-kamchatskiy,53.05,158.65,14.0,100,75,14.0,1.0
431,vallenar,-28.57,-70.76,26.25,15,0,26.25,2.35
432,erenhot,43.65,111.98,20.31,54,0,20.31,4.89
433,ketchikan,55.34,-131.65,14.0,93,90,14.0,6.2
434,harjavalta,61.32,22.13,13.0,76,19,13.0,2.6
435,santiago del estero,-27.8,-64.26,17.49,41,0,17.49,4.19
436,gerash,27.67,54.14,34.0,26,0,34.0,4.1
437,mecca,21.43,39.83,31.82,15,0,31.82,3.81
438,lipin bor,60.26,37.98,13.07,84,87,13.07,2.4
439,kropotkin,45.44,40.58,18.94,73,0,18.94,1.8
440,nizwa,22.93,57.53,30.88,46,100,30.88,1.34
441,shiyan,32.65,110.78,23.27,76,98,23.27,0.5
442,tsaratanana,-16.78,47.65,17.49,64,1,17.49,6.68
443,rawson,-43.3,-65.1,7.15,74,98,7.15,5.13
444,boueni,-12.9,45.08,26.0,74,75,26.0,4.1
445,iqaluit,63.75,-68.51,7.89,75,20,8.0,5.7
446,singaraja,-8.11,115.09,25.28,72,57,25.28,1.87
447,nokaneng,-19.67,22.27,15.08,45,0,15.08,1.53
448,ambilobe,-13.2,49.05,20.69,63,0,20.69,4.06
449,suna,57.83,50.06,21.43,87,10,21.43,3.16
450,leua,48.22,18.61,21.11,71,46,21.11,1.93
451,anloga,5.79,0.9,25.0,88,20,25.0,4.1
452,bairiki,1.33,172.98,29.0,74,40,29.0,3.6
453,sergeyevka,53.88,67.42,20.36,86,1,20.36,3.2
454,ixtapa,20.7,-105.2,31.61,66,75,32.22,3.1
455,mount isa,-20.73,139.5,11.0,71,2,11.0,4.39
456,sidi ali,36.1,0.42,22.8,83,37,22.8,3.51
457,deputatskiy,69.3,139.9,11.4,73,32,11.4,1.48
458,utete,-7.99,38.76,21.98,95,65,21.98,2.15
459,bykovo,55.64,38.08,15.14,77,0,17.22,2.0
460,adre,13.47,22.2,23.7,66,84,23.7,3.46
461,tazovskiy,67.47,78.7,11.97,72,0,11.97,8.87
462,termoli,41.99,14.99,21.86,53,0,21.86,2.04
463,westport,41.14,-73.36,29.34,66,1,30.0,3.1
464,shingu,33.73,135.98,22.42,93,100,22.42,0.32
465,cockburn town,21.46,-71.14,30.0,74,75,30.0,7.7
466,cape canaveral,28.41,-80.6,32.91,52,75,35.0,6.2
467,sao joao da ponte,-15.93,-44.01,21.44,39,0,21.44,0.5
468,kostomuksha,64.57,30.58,9.5,92,48,9.5,2.82
469,bandarbeyla,9.49,50.81,26.3,73,92,26.3,14.44
470,nerchinskiy zavod,51.31,119.61,16.51,66,29,16.51,1.34
471,auckland,-36.87,174.77,4.98,93,5,6.11,1.0
472,korcula,42.96,17.14,25.0,44,0,25.0,2.1
473,maputo,-25.97,32.59,20.34,56,0,20.34,4.83
474,poum,-20.23,164.02,20.8,74,21,20.8,5.62
475,fort nelson,58.81,-122.7,15.0,87,75,15.0,1.5
476,nacala,-14.54,40.67,20.52,91,0,20.52,2.36
477,peleduy,59.63,112.74,17.23,69,100,17.23,0.61
478,vestmannaeyjar,63.44,-20.27,11.93,75,81,11.93,9.67
479,cotonou,6.37,2.42,25.0,94,40,25.0,3.1
480,puerto colombia,10.99,-74.95,31.0,70,40,31.0,2.1
481,masumbwe,-3.63,32.18,20.76,57,41,20.76,2.16
482,batagay,67.63,134.63,16.23,54,33,16.23,1.2
483,pierre,44.37,-100.35,29.87,37,1,30.56,1.5
484,jilikul,37.49,68.53,31.0,22,20,31.0,6.0
485,mahebourg,-20.41,57.7,22.0,73,75,22.0,6.7
486,tigre,-34.43,-58.58,13.25,35,0,14.0,4.1
487,verkhnyaya inta,65.98,60.31,19.07,73,0,19.07,4.74
488,mnogovershinnyy,53.94,139.92,9.81,95,97,9.81,1.27
489,lere,10.39,8.57,21.74,89,70,21.74,1.37
490,canton,23.12,113.25,29.89,66,40,30.56,5.0
491,hobyo,5.35,48.53,25.65,80,77,25.65,11.77
492,namatanai,-3.67,152.43,26.95,77,36,26.95,2.98
493,san buenaventura,27.08,-101.53,37.48,31,1,37.48,3.23
494,mujiayingzi,42.12,118.78,17.93,70,100,17.93,1.08
495,bara,10.37,10.73,27.81,63,100,27.81,3.83
496,boa vista,2.82,-60.67,30.0,55,40,30.0,1.5
497,subate,56.01,25.91,10.07,95,65,10.07,2.16
498,sarkand,45.41,79.92,17.36,46,0,17.36,2.29
499,goundam,16.41,-3.67,35.52,29,77,35.52,3.06
500,kihei,20.79,-156.47,26.8,55,40,30.0,9.3
501,astoria,46.19,-123.83,17.71,77,90,18.0,2.6
502,norman wells,65.28,-126.83,17.0,63,75,17.0,3.1
503,camacari,-12.7,-38.32,23.0,94,75,23.0,2.1
504,broome,42.25,-75.83,32.1,48,20,34.44,4.1
505,polunochnoye,60.87,60.42,21.34,70,0,21.34,1.54
506,chulumani,-16.41,-67.53,21.7,49,43,21.7,2.56
507,filadelfia,39.95,-75.16,32.44,46,75,33.89,4.1
508,sao jose da tapera,-9.56,-37.38,23.18,82,69,23.18,3.99
509,mezen,65.85,44.24,17.41,95,88,17.41,3.94
510,aquiraz,-3.9,-38.39,27.0,74,75,27.0,4.6
511,alappuzha,9.49,76.33,24.82,88,100,24.82,2.01
512,muisne,0.6,-80.03,24.23,86,86,24.23,5.71
513,kota belud,6.35,116.43,24.43,100,20,25.0,1.0
514,liaoyang,41.27,123.17,19.0,82,100,19.0,2.0
515,camacha,33.08,-16.33,21.0,77,40,21.0,4.6
516,quelimane,-17.88,36.89,19.02,91,0,19.02,1.25
517,tucupita,9.06,-62.05,29.4,69,17,29.4,2.76
518,maniitsoq,65.42,-52.9,5.83,97,100,5.83,9.56
519,monrovia,6.3,-10.8,25.0,94,75,25.0,5.92
520,saint-georges,12.06,-61.75,30.0,70,20,30.0,8.7
521,thio,-21.62,166.22,17.0,82,20,17.0,1.5
522,edea,3.8,10.13,27.0,88,75,27.0,1.0
523,maragogi,-9.01,-35.22,24.42,86,57,24.42,3.82
524,kebumen,-7.67,109.65,23.01,87,100,23.01,1.99
525,hearst,49.68,-83.67,26.2,62,91,26.2,2.75
526,sakakah,29.97,40.21,31.0,14,0,31.0,4.1
527,narrabri,-30.32,149.78,11.86,71,90,12.0,2.1
528,colesberg,-30.72,25.1,12.83,49,40,12.83,7.9
529,urucara,-2.54,-57.76,29.36,67,97,29.36,1.51
530,goderich,43.75,-81.72,28.34,71,53,30.56,0.45
531,arivonimamo,-19.02,47.18,12.0,76,75,12.0,3.1
532,bubaque,11.28,-15.83,28.15,82,99,28.15,7.29
533,waitati,-45.75,170.57,7.8,72,91,8.33,7.6
534,logon,11.33,124.11,27.78,81,99,27.78,4.89
535,kijang,35.24,129.21,23.0,88,90,23.0,4.1
536,codrington,-38.27,141.97,6.21,77,100,6.21,3.87
537,kayes,14.0,-11.0,33.7,41,67,33.7,6.1
538,neiafu,-18.65,-173.98,25.0,83,40,25.0,2.6
539,prince rupert,54.32,-130.32,15.0,82,75,15.0,3.1
540,taoudenni,22.68,-3.98,34.02,10,0,34.02,1.11
541,samandag,36.08,35.98,26.0,74,10,26.0,6.7
542,leiyang,26.4,112.86,25.72,92,100,25.72,2.16
543,lakes entrance,-37.88,147.98,2.78,97,100,2.78,1.95
544,trincomalee,8.57,81.23,26.2,84,100,26.2,6.02
545,broken hill,-31.95,141.43,10.0,61,75,10.0,4.6
546,mayo,38.89,-76.51,30.74,62,1,31.67,4.1
547,atasu,48.68,71.64,19.56,56,3,19.56,3.14
548,salsk,46.47,41.54,19.19,75,1,19.19,3.97
549,eyl,7.98,49.82,27.37,64,99,27.37,12.51
550,guisa,20.25,-76.54,35.0,53,40,35.0,6.7
551,korla,41.76,86.15,32.78,57,100,32.78,0.45
552,pascagoula,30.37,-88.56,33.57,63,75,34.0,2.6
553,menongue,-14.66,17.69,12.82,38,0,12.82,0.77
554,roswell,34.02,-84.36,30.79,66,1,31.11,5.7
555,marsh harbour,26.54,-77.06,30.27,70,100,30.27,5.14
556,moengo,5.62,-54.4,26.34,89,99,26.34,1.26
557,carbonia,39.17,8.52,25.52,74,20,26.0,2.1
558,coahuayana,18.73,-103.68,28.0,74,90,28.0,2.61
559,kingussie,57.08,-4.05,11.93,87,100,12.78,1.0
560,barrhead,55.8,-4.39,13.02,71,100,14.44,4.6
